{"691180618402234399": {"city": "Waterloo", "country": "Canada", "continent": "North America", "lat": 43.4652699, "lon": -80.5222961}, "748785451397152869": {"city": "\u0130stanbul", "country": "T\u00fcrkiye", "continent": "Asia", "lat": 41.006381, "lon": 28.9758715}, "675440387594256384": {"city": "india", "country": "India", "continent": "Asia", "lat": 22.3511148, "lon": 78.6677428}, "881512946419769404": {"city": "Virginia", "country": "United States", "continent": "North America", "lat": 37.1232245, "lon": -78.4927721}, "472103486142676992": {"city": "Lietuva", "country": "Lietuva", "continent": "Unknown", "lat": 55.3500003, "lon": 23.7499997}, "879442222481825862": {"city": "Lubuskie, Polska", "country": "Polska", "continent": "Unknown", "lat": 52.1001754, "lon": 15.3605075}, "540920813772210176": {"city": "Ohio", "country": "United States", "continent": "North America", "lat": 40.2253569, "lon": -82.6881395}, "697908101600509964": {"city": "Barcelona", "country": "Espa\u00f1a", "continent": "Unknown", "lat": 41.3828939, "lon": 2.1774322}, "718899207553024066": {"city": "India", "country": "India", "continent": "Asia", "lat": 22.3511148, "lon": 78.6677428}, "570023325653270548": {"city": "Milano", "country": "Italia", "continent": "Unknown", "lat": 45.4641943, "lon": 9.1896346}, "216122672457842689": {"city": "Texas", "country": "United States", "continent": "North America", "lat": 31.2638905, "lon": -98.5456116}, "618979970265513994": {"city": "Egypt", "country": "\u0645\u0635\u0631", "continent": "Unknown", "lat": 26.2540493, "lon": 29.2675469}, "1298698368108990479": {"city": "Firenze", "country": "Italia", "continent": "Unknown", "lat": 43.7751708, "lon": 11.2430183}, "548973522077351959": {"city": "NRW, Germany", "country": "Deutschland", "continent": "Unknown", "lat": 51.4789205, "lon": 7.5543751}, "148823539221266432": {"city": "Amsterdam", "country": "Nederland", "continent": "Unknown", "lat": 52.3730796, "lon": 4.8924534}, "1278860884294500511": {"city": "\u0627\u0644\u0642\u0627\u0647\u0631\u0629", "country": "\u0645\u0635\u0631", "continent": "Unknown", "lat": 30.0443879, "lon": 31.2357257}, "1299313708975132777": {"city": "NRW, Germany", "country": "Deutschland", "continent": "Unknown", "lat": 51.4789205, "lon": 7.5543751}, "609732628790378512": {"city": "Dresden", "country": "Deutschland", "continent": "Unknown", "lat": 51.0493286, "lon": 13.7381437}, "910081079283699732": {"city": "Rotterdam", "country": "Nederland", "continent": "Unknown", "lat": 51.9244424, "lon": 4.47775}, "383330685139550208": {"city": "Nederland", "country": "Nederland", "continent": "Unknown", "lat": 52.2434979, "lon": 5.6343227}, "610472390107070466": {"city": "vietnam", "country": "Vi\u1ec7t Nam", "continent": "Unknown", "lat": 15.9266657, "lon": 107.9650855}, "534367107836805120": {"city": "Hesse, Germany", "country": "Deutschland", "continent": "Unknown", "lat": 50.6080651, "lon": 9.0284647}, "319848617814917120": {"city": "Bal\u0131kesir", "country": "T\u00fcrkiye", "continent": "Asia", "lat": 39.5400798, "lon": 28.0228793}, "450772749829537793": {"city": "Pescara", "country": "Italia", "continent": "Unknown", "lat": 42.3102619, "lon": 13.95759010584892}, "476546501280268318": {"city": "united states", "country": "United States", "continent": "North America", "lat": 39.7837304, "lon": -100.445882}, "400025738184622090": {"city": "\u0130zmir", "country": "T\u00fcrkiye", "continent": "Asia", "lat": 38.23166, "lon": 27.02997}, "1234829080898310197": {"city": "germany", "country": "Deutschland", "continent": "Unknown", "lat": 51.1638175, "lon": 10.4478313}, "703602578901958717": {"city": "The Netherlands", "country": "Nederland", "continent": "Unknown", "lat": 52.24764975, "lon": 5.541246849406163}, "744191526451544094": {"city": "Australia", "country": "Australia", "continent": "Oceania", "lat": -24.7761086, "lon": 134.755}, "470953330827460628": {"city": "Kocaeli", "country": "T\u00fcrkiye", "continent": "Asia", "lat": 40.8216536, "lon": 29.9507184}, "748110350733279303": {"city": "Philippines", "country": "Pilipinas", "continent": "Unknown", "lat": 12.7503486, "lon": 122.7312101}, "342711712363053056": {"city": "majula", "country": "Tanzania", "continent": "Africa", "lat": -4.063362, "lon": 33.9949362}, "638844843807866901": {"city": "T\u00fcrkiye", "country": "T\u00fcrkiye", "continent": "Asia", "lat": 39.294076, "lon": 35.2316631}, "499627134973640707": {"city": "Medell\u00edn", "country": "Colombia", "continent": "South America", "lat": 6.269732449999999, "lon": -75.60255965090315}, "931899963410108478": {"city": "Malaysia", "country": "Malaysia", "continent": "Asia", "lat": 4.5693754, "lon": 102.2656823}, "1051933684212715540": {"city": "London", "country": "United Kingdom", "continent": "Europe", "lat": 51.4893335, "lon": -0.14405508452768728}, "459809697021689857": {"city": "Hamburg", "country": "Deutschland", "continent": "Unknown", "lat": 53.550341, "lon": 10.000654}, "321605364971995138": {"city": "Indonesia", "country": "Indonesia", "continent": "Asia", "lat": -2.4833826, "lon": 117.8902853}}